{"offices": [{"address": "Aabogade 15\n8200 Aarhus\nDenmark", "id": "aarhus", "image": "https://lh3.googleusercontent.com/tpBMFN5os8K-qXIHiAX5SZEmN5fCzIGrj9FdJtbZPUkC91ookSoY520NYn7fK5yqmh1L1m3F2SJA58v6Qps3JusdrxoFSwk6Ajv2K88", "lat": 10.371655464207091, "lng": 76.30391823145087, "name": "Aarhus", "phone": "", "region": "europe"}, {"address": "Claude Debussylaan 34\n1082 MD, Amsterdam\nNetherlands", "id": "amsterdam", "image": "https://lh3.googleusercontent.com/gG1zKXcSmRyYWHwUn2Z0MITpdqwb52RAEp3uthG2J5Xl-4_Wz7_WmoM6T_TBg6Ut3L1eF-8XENO10sxVIFdQHilj8iRG29wROpSoug", "lat": 10.372590339029207, "lng": 76.30504753694251, "name": "Amsterdam", "phone": "", "region": "europe"}, {"address": "2300 Traverwood Dr.\nAnn Arbor, MI 48105\nUnited States", "id": "ann-arbor", "image": "https://lh3.googleusercontent.com/Iim0OVcAgg9vmXc5ADn9KvOQFplrMZ8hBTg2biiTtuWPy_r56cy4Byx1ROk6coGt7knQdmx_jO45VX1kiCJZ0QzEtS97AP_BYG4F2w", "lat": 10.37235874151438, "lng": 76.30525766540633, "name": "Ann Arbor", "phone": "+1 734-332-6500", "region": "north-america"}, {"address": "Fragkokklisias 7\nAthens 151 25\nGreece", "id": "athens", "image": "https://lh3.googleusercontent.com/XroZnqewSrO6KuvXM5hDHtjUJzUcRQLZYfCKs4jP44dKezRvNx58uxaqUKS4fQ2eXzG2TpJNJ1X2xtfBe7Prl5hSG_xjPEF1xLtFodM", "lat": 10.371895545970649, "lng": 76.30621969933702, "name": "Zurich", "phone": "+41 44 668 18 00", "region": "europe"}], "regions": [{"coords": {"lat": 2.9660291, "lng": 1.3271339}, "id": "africa-middle-east", "name": "Africa & Middle East", "zoom": 3.0}, {"coords": {"lat": 0.0524811, "lng": 127.6560787}, "id": "asia-pacific", "name": "Asia Pacific", "zoom": 3.0}, {"coords": {"lat": 46.1352815, "lng": 7.4033438}, "id": "europe", "name": "Europe", "zoom": 4.0}, {"coords": {"lat": -17.5554497, "lng": -99.2316195}, "id": "latin-america", "name": "Latin America", "zoom": 3.0}, {"coords": {"lat": 45.7128252, "lng": -97.1547448}, "id": "north-america", "name": "North America", "zoom": 4.0}]}